,City,Cloudiness,Country,Date,Humidity,Lat,Long,Max Temp,Wind Speed
0,Husavik,44,CA,1516619383,91,50.56,-96.99,13.77,3.94
1,Corinto,0,BR,1516619657,69,-18.36,-44.46,80.32,6.17
2,Xunchang,92,CN,1516619383,90,28.45,104.71,50.35,2.71
3,Muslyumovo,92,RU,1516619384,82,55.31,53.19,17.82,13.67
4,Bakchar,0,RU,1516619384,50,57.02,82.07,-29.53,5.61
5,Ponto Novo,44,BR,1516619385,70,-10.86,-40.13,75.82,7.96
6,Mahina,8,ML,1516619658,28,13.76,-10.85,81.94,12.33
7,Mehriz,0,IR,1516617000,18,31.58,54.44,59.0,6.93
8,Lufilufi,92,WS,1516619386,100,-13.87,-171.6,79.38,17.47
9,Rio Claro,0,BR,1516615200,88,-22.41,-47.56,71.6,2.24
10,Xian,75,ES,1516618800,100,42.76,-8.49,57.2,3.36
11,Canton,90,US,1516618560,87,40.8,-81.38,48.2,6.93
12,Conchas,32,BR,1516619388,94,-23.02,-48.01,77.85,3.94
13,Umea,80,SE,1516619389,100,63.83,20.26,17.68,14.0
14,Nanyamba,75,MZ,1516615200,78,-10.69,39.81,82.4,14.99
15,Westerland,90,NL,1516618500,93,52.89,4.93,46.4,12.75
16,Nalvo,8,PH,1516619390,83,16.81,120.51,69.3,1.03
17,Fengrun,36,CN,1516619391,46,39.83,118.12,11.07,8.97
18,Sinnai,40,IT,1516618200,55,39.3,9.2,64.4,25.28
19,Santa Barbara,1,US,1516617300,93,34.42,-119.7,48.2,14.9
20,Remedios,75,CU,1516614600,88,22.5,-79.55,69.8,11.41
21,Caibarien,75,CU,1516614600,88,22.52,-79.47,69.8,11.41
22,Lourdes,0,SV,1516614600,83,13.73,-89.37,71.6,2.24
23,Mabay,75,CU,1516614660,94,20.35,-76.78,73.4,8.05
24,Natal,40,BR,1516615200,83,-5.81,-35.21,78.8,9.17
25,Bariri,36,BR,1516619396,79,-22.07,-48.74,79.47,4.5
26,Suoyarvi,68,RU,1516619396,73,62.08,32.35,10.39,3.49
27,Katherine,75,AU,1516618800,94,-14.47,132.26,77.0,4.7
28,Saint Albans,90,US,1516618380,79,44.81,-73.08,30.2,11.41
29,Belaya Gora,80,RU,1516619398,29,68.54,146.19,-19.85,6.85
30,Stolin,88,BY,1516619398,87,51.89,26.85,23.4,6.85
31,Bhikangaon,0,IN,1516619399,31,21.87,75.96,81.27,3.6
32,Zhireken,12,RU,1516619399,35,52.82,117.29,-25.39,5.17
33,Magadi,0,IN,1516617000,34,12.96,77.22,80.6,3.36
34,Warwick,90,US,1516618380,100,41.7,-71.42,37.4,2.48
35,Zhicheng,0,CN,1516619402,87,35.04,112.59,27.18,6.51
36,Southaven,75,US,1516618500,82,34.99,-90.01,57.2,11.41
37,Terra Santa,0,BR,1516619403,88,-2.1,-56.49,79.15,2.93
38,Stykkisholmur,88,IS,1516619404,97,65.08,-22.73,31.81,17.36
39,Mogadishu,0,SO,1516615200,70,2.04,45.34,84.2,19.46
40,Izhma,56,RU,1516619405,55,65.01,53.91,3.82,11.99
41,Santo Augusto,48,BR,1516619406,90,-27.85,-53.78,78.07,7.07
42,Nakskov,80,DK,1516619407,100,54.84,11.13,34.83,21.05
43,Charleston,90,US,1516614840,76,38.35,-81.63,51.8,3.36
44,Curillo,92,CO,1516619409,94,1.03,-75.92,65.02,2.37
45,Gescher,75,DE,1516618200,100,51.96,7.0,42.8,6.93
46,Balaka,0,MW,1516619410,82,-14.99,34.96,79.92,4.38
47,Les Herbiers,90,FR,1516618800,81,46.87,-1.01,53.6,28.86
48,Mineros,75,BO,1516616160,100,-17.12,-63.23,73.4,8.05
49,Amalfi,12,CO,1516619411,95,6.91,-75.07,67.9,1.92
50,Mandsaur,92,IN,1516619412,40,24.07,75.07,79.47,4.72
51,Malinyi,100,TZ,1516619413,93,-8.94,36.14,73.75,2.48
52,Tarancon,0,ES,1516618800,81,40.01,-3.01,48.2,8.05
53,Kilrush,75,IE,1516617000,87,51.96,-8.06,44.6,6.93
54,Linhares,24,BR,1516619415,79,-19.38,-40.06,81.49,4.5
55,Jagtial,0,IN,1516619415,53,18.8,78.92,78.03,2.93
56,Desbiens,20,CA,1516615200,83,48.42,-71.95,-9.41,5.82
57,Bageshwar,0,IN,1516619416,81,29.85,79.77,45.45,1.25
58,Union de San Antonio,5,MX,1516617780,35,21.1,-101.97,42.8,2.71
59,Capinota,75,BO,1516615200,82,-17.71,-66.26,55.4,2.93
60,Mandali,68,IQ,1516619418,58,33.75,45.55,61.06,9.64
61,Lind,75,DE,1516618200,100,50.85,7.1,48.2,3.36
62,Karlshamn,88,SE,1516619420,90,56.17,14.86,31.27,3.71
63,Beboto,0,TD,1516619421,19,8.27,16.94,95.85,11.99
64,Tzucacab,88,MX,1516619421,97,20.07,-89.05,72.67,3.15
65,Carambei,32,BR,1516619422,100,-24.92,-50.1,71.23,4.16
66,Avare,12,BR,1516619422,88,-23.1,-48.93,77.8,4.83
67,Gravatai,75,BR,1516615200,100,-29.94,-50.99,71.6,3.36
68,Orcopampa,80,PE,1516619423,100,-15.27,-72.34,30.55,3.04
69,Staropyshminsk,76,RU,1516617000,57,56.94,60.9,-11.21,15.66
70,Aksarka,0,RU,1516619425,0,66.56,67.8,-31.73,10.65
71,Iwaki,75,JP,1516616640,100,37.05,140.89,23.0,14.99
72,Solwezi,20,ZM,1516619426,76,-12.18,26.4,78.03,5.84
73,Smirnykh,32,RU,1516619427,73,49.74,142.83,-17.29,2.71
74,Gazojak,0,TM,1516619427,65,41.19,61.4,42.07,2.26
75,Namibe,36,AO,1516619428,100,-15.19,12.15,77.26,8.97
76,Mazabuka,8,ZM,1516619428,37,-15.86,27.75,92.2,9.31
77,Fez,0,MA,1516617000,42,34.03,-5.02,62.6,2.24
78,Changtu,0,CN,1516619430,30,42.78,124.11,-20.93,2.93
79,Herrin,90,US,1516617960,100,37.8,-89.03,57.2,11.41
80,Witbank,12,ZA,1516619431,70,-25.87,29.23,78.52,5.17
81,Lloydminster,90,CA,1516618800,100,53.28,-110.01,19.4,13.87
82,Melilla,75,EC,1516615200,83,-0.8,-80.23,77.0,1.81
83,Uspenka,92,UA,1516619433,96,48.39,39.16,24.88,11.43
84,Vozdvizhenka,56,RU,1516619433,66,56.12,60.78,-8.96,10.98
85,Kharan,0,PK,1516619434,74,28.58,65.42,48.55,4.5
86,Pteleos,40,GR,1516618200,46,39.05,22.95,50.0,9.17
87,Rondonopolis,8,BR,1516619435,77,-16.46,-54.64,83.65,3.04
88,LUGOBA,36,TZ,1516619436,90,-6.46,38.33,81.72,4.61
89,Le Vauclin,64,MQ,1516617000,83,14.55,-60.84,75.2,1.12
90,KALAS,0,PK,1516617000,32,33.49,72.96,69.8,6.93
91,Sarwar,0,IN,1516619437,64,26.06,75.01,72.13,4.05
92,Ossora,88,RU,1516619438,87,59.24,163.07,27.22,11.65
93,Oussouye,20,SN,1516615200,37,12.49,-16.54,75.2,11.41
94,Cessnock,0,AU,1516618800,65,-32.83,151.35,77.0,10.29
95,Tupik,12,RU,1516619172,0,54.43,119.94,-29.71,4.05
96,Corum,75,TR,1516614600,70,38.8,29.89,46.4,10.29
97,Kassala,0,SD,1516619441,18,15.45,36.38,96.52,8.19
98,Marquette,90,US,1516617480,92,46.54,-87.4,32.0,10.29
99,Tottori,75,JP,1516615200,100,35.5,134.23,35.6,9.17
100,Buchmany,64,UA,1516619443,92,51.07,28.04,20.88,7.74
101,Visby,0,SE,1516619444,100,57.64,18.3,32.58,8.63
102,Chase,90,US,1516617540,100,43.89,-85.64,37.4,11.41
103,Zaoyang,32,CN,1516619445,84,32.12,112.76,39.19,6.4
104,Sainte-Maxime,75,FR,1516618800,48,43.31,6.64,66.2,17.22
105,Georgiyevka,88,RU,1516619446,96,52.25,40.45,20.02,4.38
106,Yelatma,48,RU,1516619446,77,54.97,41.75,19.12,7.29
107,Karoi,8,ZW,1516619447,37,-16.82,29.68,88.92,4.61
108,Mbinga,80,TZ,1516619447,100,-10.95,35.0,71.95,4.5
109,Vermillion,90,US,1516618560,95,42.78,-96.93,33.8,24.16
110,Richmond,90,CA,1516618800,87,49.16,-123.14,44.6,12.75
111,Bela,0,PK,1516619449,24,26.23,66.31,70.06,5.61
112,Dabola,8,GN,1516619449,20,10.74,-11.11,85.72,9.98
113,Powell,90,US,1516618500,100,40.16,-83.08,48.2,9.17
114,Savantvadi,0,IN,1516619450,47,15.9,73.82,81.67,5.73
115,Alaca,44,TR,1516619452,89,40.17,34.84,41.17,9.98
116,Dubovka,90,RU,1516617000,100,49.06,44.83,28.4,13.42
117,Cumra,75,TR,1516618200,81,37.57,32.77,42.8,21.92
118,Standerton,12,ZA,1516619453,84,-26.94,29.24,74.29,5.28
119,Mahbubabad,0,IN,1516619454,46,17.62,80.02,78.88,3.83
120,Wajir,0,KE,1516619454,31,1.75,40.07,96.34,13.0
121,Biaora,76,IN,1516619455,34,23.92,76.91,80.5,4.61
122,Barguzin,12,RU,1516619456,43,53.62,109.63,-29.71,2.93
123,Ibipeba,0,BR,1516619456,53,-11.64,-42.01,79.42,9.42
124,Kholodnyy,64,RU,1516619457,30,62.72,147.95,-23.0,3.94
125,San Isidro,24,PH,1516619460,93,16.74,121.63,73.35,3.15
126,Xiaoweizhai,92,CN,1516619460,96,26.23,107.51,49.5,2.59
127,Maralal,0,KE,1516619461,39,1.1,36.7,77.85,7.52
128,Nybro,68,SE,1516619687,93,56.75,15.91,25.78,3.38
129,Canmore,1,CA,1516618800,53,51.09,-115.35,26.6,11.41
130,Karuzi,68,BI,1516619462,62,-3.1,30.16,74.92,3.71
131,La Peca,92,PE,1516619462,100,-5.61,-78.44,63.04,1.92
132,Livingston,90,US,1516615080,82,32.58,-88.19,60.8,3.36
133,Cataingan,64,PH,1516619464,94,12.0,123.99,81.76,13.44
134,Bandar-e Lengeh,0,IR,1516615200,40,26.56,54.88,73.4,9.17
135,Manica,75,MZ,1516615200,65,-18.94,32.88,78.8,8.52
136,Fergus Falls,90,US,1516617300,100,46.28,-96.08,26.6,9.17
137,Suozhen,76,CN,1516619157,69,36.95,118.1,19.3,7.63
138,New Haven,90,US,1516618560,93,41.31,-72.93,44.6,4.7
139,Novobureyskiy,8,RU,1516619467,47,49.8,129.88,-29.12,2.59
140,Nova Olimpia,0,BR,1516619153,86,-14.8,-57.29,83.29,4.38
141,West Allis,90,US,1516618500,93,43.02,-88.01,39.2,11.41
142,Asadabad,0,IR,1516615200,48,34.78,48.12,42.8,2.24
143,Zharkent,32,KZ,1516619469,79,44.17,80.0,12.87,1.7
144,Yatou,40,CM,1516615200,62,3.63,9.81,89.6,3.36
145,Phalaborwa,0,ZA,1516619470,44,-23.95,31.14,88.24,8.52
146,Yangjiang,0,CN,1516619470,96,21.85,111.96,65.2,6.06
147,Obo,0,CF,1516619471,49,5.39,26.49,90.04,10.98
148,Landau,90,DE,1516618200,100,51.34,9.08,39.2,5.82
149,Jos,0,NG,1516619472,18,9.92,8.9,80.82,9.53
150,Karratha,0,AU,1516619473,36,-20.74,116.85,94.45,10.98
151,Norman Wells,90,CA,1516615200,76,65.28,-126.83,-11.21,3.36
152,Baoning,75,CN,1516615200,76,25.34,110.03,53.6,4.47
153,Mwinilunga,12,ZM,1516619474,100,-11.73,24.43,69.97,3.15
154,Bintulu,75,MY,1516615200,79,3.17,113.03,84.2,4.7
155,Araioses,40,BR,1516616100,94,-2.89,-41.91,78.8,4.7
156,Craigieburn,75,AU,1516618800,72,-37.6,144.94,66.2,12.75
157,Nzerekore,0,GN,1516619477,22,7.76,-8.82,91.12,11.88
158,Mtwara,75,TZ,1516615200,78,-10.28,40.18,82.4,14.99
159,Sangueya,0,GN,1516619694,72,10.7,-14.37,84.33,4.16
160,Devrek,75,TR,1516618200,66,41.22,31.96,55.4,10.29
161,Podosinovets,80,RU,1516619479,72,60.28,47.06,19.3,11.88
162,Castelldefels,0,ES,1516617000,55,41.29,1.98,62.6,12.75
163,Rongcheng,0,CN,1516619480,89,37.16,122.42,23.17,17.13
164,Garhi Khairo,0,PK,1516619481,62,28.06,67.98,67.95,3.83
165,Arraias,0,BR,1516619481,84,-12.93,-46.94,80.68,5.39
166,Kaspiyskiy,92,RU,1516619482,92,45.39,47.37,33.88,12.77
167,Pombas,8,BR,1516619482,77,-15.9,-54.74,83.65,3.04
168,Bull Savanna,48,JM,1516619483,85,17.89,-77.59,68.35,6.06
169,Ode,0,NG,1516619483,23,7.79,5.71,93.01,6.85
170,Lucapa,100,AO,1516619484,88,-8.42,20.74,73.75,3.49
171,Upig,75,PH,1516615200,74,15.02,120.99,84.2,16.11
172,Murgab,0,TM,1516615200,44,37.5,61.97,59.0,4.7
173,Abapo,0,BO,1516619486,61,-18.83,-63.47,77.17,5.28
174,Esmeraldas,0,BR,1516615200,57,-19.76,-44.31,75.2,11.41
175,Liku,20,ID,1516619487,76,-0.73,119.89,81.9,3.71
176,Bestobe,8,KZ,1516619488,0,52.5,73.1,-33.58,5.61
177,Terekli-Mekteb,92,RU,1516619488,100,44.16,45.87,37.8,11.65
178,Mae Sai,0,MM,1516615200,48,20.44,99.89,82.4,2.24
179,Olyka,75,UA,1516617000,85,50.73,25.81,23.0,11.18
180,Almeirim,75,PT,1516618800,76,39.21,-8.63,57.2,8.19
181,Sulmona,0,IT,1516618500,50,42.05,13.93,51.8,5.82
182,Dobryanka,75,RU,1516617000,77,58.45,56.42,6.8,20.13
183,Pindiga,0,NG,1516619491,20,9.98,10.93,86.58,12.21
184,Tebingtinggi,40,ID,1516617000,88,3.33,99.16,80.6,4.7
185,Poddorye,80,RU,1516619493,83,57.47,31.12,22.45,11.21
186,Tarakan,44,ID,1516619141,96,3.3,117.63,81.0,5.28
187,Waterloo,90,CA,1516615200,100,43.47,-80.52,35.6,6.93
188,Balabac,36,PH,1516619495,100,7.99,117.06,81.72,7.18
189,Pervouralsk,88,RU,1516617000,57,56.9,59.94,-11.21,15.66
190,Tomohon,40,ID,1516618800,83,1.33,124.84,78.8,1.12
191,Cacequi,92,BR,1516619497,100,-29.88,-54.83,70.83,6.62
192,Karachev,75,RU,1516617000,92,53.12,35.0,17.6,4.47
193,Honningsvag,75,NO,1516618200,78,70.98,25.97,17.6,18.34
194,Tambacounda,0,SN,1516618800,11,13.77,-13.67,84.2,16.11
195,Vila Franca do Campo,75,PT,1516618800,82,37.72,-25.43,64.4,10.29
196,Mazyr,48,BY,1516619499,94,52.05,29.27,18.4,4.61
197,Nikolayevka,100,RU,1516619500,99,46.73,38.57,31.23,24.4
198,Ambanja,92,MG,1516619501,99,-13.68,48.45,73.84,3.15
199,Dubai,0,AE,1516615200,33,25.27,55.3,75.2,11.41
200,Indiana,90,US,1516618560,100,40.62,-79.15,48.2,4.61
201,Gaoua,0,BF,1516619502,22,10.33,-3.18,89.05,11.32
202,Nizhniy Odes,68,RU,1516619503,52,63.64,54.86,4.99,13.0
203,Bloemfontein,40,ZA,1516615200,47,-29.12,26.22,77.0,19.46
204,Pampa,1,US,1516618500,46,35.54,-100.96,35.6,21.92
205,Aykhal,36,RU,1516619505,82,65.95,111.51,-19.81,10.87
206,Laurel,1,US,1516618380,68,45.67,-108.77,24.8,9.17
207,Huai Thalaeng,20,TH,1516615200,52,15.0,102.65,89.6,6.93
208,Robertsport,0,LR,1516619507,93,6.75,-11.37,84.15,3.04
209,Nhamunda,8,BR,1516619233,93,-2.19,-56.71,76.63,3.27
210,Buin,20,CL,1516618800,87,-33.73,-70.74,57.2,2.59
211,Pocone,0,BR,1516619496,62,-16.26,-56.62,88.15,4.94
212,Tulungagung,56,ID,1516619509,92,-8.06,111.9,72.18,2.26
213,Llanes,8,ES,1516619510,81,43.42,-4.75,48.73,2.04
214,Pueblo Nuevo,24,MX,1516619512,88,23.99,-106.96,53.05,2.15
215,Dmytrivka,0,UA,1516617000,73,50.46,30.17,26.6,6.71
216,Igrim,0,RU,1516619513,36,63.19,64.42,-23.54,7.18
217,Nacala,44,MZ,1516619513,91,-14.56,40.69,82.75,1.81
218,Fukue,75,JP,1516617000,93,35.03,136.69,41.0,11.41
219,Sakaraha,68,MG,1516619515,63,-22.91,44.53,83.52,4.05
220,Anori,48,BR,1516619515,99,-3.74,-61.66,75.87,3.83
221,Chunoyar,56,RU,1516619516,0,57.45,97.32,-34.7,2.82
222,Zavodouspenskoye,0,RU,1516617000,56,56.86,65.02,-18.41,6.71
223,Saiki,40,JP,1516615200,86,32.95,131.89,39.2,8.05
224,Ayutla,76,MX,1516619519,61,20.13,-104.35,40.95,2.26
225,Bicester,20,GB,1516618560,81,51.9,-1.15,48.2,5.82
226,Kolpashevo,0,RU,1516619520,0,58.31,82.9,-34.07,8.41
227,Chilca,90,PE,1516617000,75,-13.22,-72.34,46.4,2.24
228,Matinha,32,BR,1516619522,100,-3.1,-45.04,76.27,3.94
229,Betanzos,75,ES,1516618800,82,43.28,-8.21,57.2,6.93
230,Ha Noi,75,VN,1516617000,69,21.02,105.84,73.4,10.29
231,Horta,20,ES,1516617000,62,41.43,2.16,62.6,13.87
232,Gbarnga,0,LR,1516619524,24,7.0,-9.47,92.88,10.31
233,Kenitra,40,MA,1516617000,93,34.26,-6.57,55.4,2.24
234,Santo Antonio do Taua,20,BR,1516618800,83,-1.15,-48.13,78.8,6.93
235,Waraseoni,0,IN,1516619526,43,21.76,80.05,77.13,2.93
236,Kargat,0,RU,1516619527,34,55.19,80.28,-22.64,12.77
237,Mareeba,90,AU,1516618800,74,-16.99,145.42,80.6,9.17
238,Jaisalmer,0,IN,1516619528,48,26.91,70.91,71.28,5.84
239,Cotonou,20,BJ,1516615200,70,6.37,2.43,86.0,4.7
240,Orodara,0,BF,1516618800,10,10.98,-4.92,84.2,13.87
241,Staryy Krym,76,UA,1516619716,100,45.03,35.1,43.06,11.99
242,Beberibe,75,BR,1516615200,78,-4.18,-38.13,82.4,12.75
243,Rafsanjan,0,IR,1516619531,20,30.4,55.99,54.9,3.27
244,Tayshet,48,RU,1516619716,46,55.94,98.01,-28.85,2.59
245,Emba,40,CY,1516618800,63,34.81,32.42,66.2,13.87
246,Huangmei,8,CN,1516619532,97,30.1,115.95,45.72,7.18
247,Rongcheng,0,CN,1516619480,89,37.16,122.42,23.17,17.13
248,Teresina,0,BR,1516615200,88,-5.09,-42.81,77.0,2.24
249,Bilibino,92,RU,1516619533,71,68.06,166.44,-16.84,2.37
250,Kamen-Rybolov,20,RU,1516619534,66,44.75,132.04,-8.78,1.59
251,Boundiali,0,CI,1516619534,34,9.53,-6.48,82.39,11.43
252,Three Hills,5,CA,1516618800,46,51.7,-113.27,30.2,10.29
253,Caraballeda,20,VE,1516615200,83,10.61,-66.85,75.2,10.76
254,West Plains,75,US,1516614780,93,36.73,-91.85,51.8,4.7
255,Baisha,32,CN,1516619537,86,19.23,109.45,68.35,1.36
256,Nanma,0,CN,1516619537,64,35.7,113.14,25.65,5.39
257,Kamennomostskiy,92,RU,1516619538,58,44.29,40.18,48.42,2.71
258,Cherepanovo,0,RU,1516619539,68,54.23,83.37,-14.9,13.11
259,Bayog,92,PH,1516619539,96,7.85,123.04,76.05,2.71
260,Cap-Chat,0,CA,1516619540,78,49.1,-66.68,-0.5,13.33
261,Kualakapuas,56,ID,1516619541,85,-3.01,114.39,80.1,3.71
262,Joshimath,0,IN,1516619541,100,30.57,79.57,13.09,0.92
263,Chimoio,75,MZ,1516615200,65,-19.11,33.48,78.8,9.42
264,Lebanon,90,US,1516618560,100,43.64,-72.25,32.0,2.15
265,Nong Khai,20,TH,1516617000,48,17.88,102.75,87.8,4.7
266,Kjopsvik,75,NO,1516618200,66,68.1,16.37,15.8,5.82
267,Mmabatho,40,ZA,1516615200,28,-25.85,25.61,86.0,13.87
268,Batabano,75,CU,1516614900,94,22.72,-82.29,69.8,6.93
269,Oshnaviyeh,40,IR,1516615200,60,37.04,45.1,41.0,4.7
270,Monte Alegre de Minas,0,BR,1516619545,64,-18.87,-48.88,83.88,4.61
271,Obeliai,0,LT,1516619546,82,55.94,25.8,19.12,9.75
272,Dogondoutchi,0,NE,1516619546,24,13.64,4.03,85.32,16.8
273,Shu,48,KZ,1516619547,84,43.6,73.76,20.11,5.84
274,Kreuztal,90,DE,1516618200,100,50.96,7.99,44.6,11.41
275,Utevka,92,RU,1516619548,87,52.9,50.95,21.46,11.21
276,Ryotsu,75,JP,1516617060,100,38.08,138.43,32.0,5.82
277,Karibib,0,NA,1516619549,64,-21.94,15.86,76.36,6.06
278,Hasaki,75,JP,1516617900,100,35.73,140.83,32.0,21.92
279,Jieshou,0,CN,1516619550,81,33.26,115.35,35.1,7.63
280,Ohara,75,JP,1516615200,86,35.12,135.83,37.4,3.36
281,Sheregesh,0,RU,1516619551,26,52.93,87.98,-18.77,3.38
282,Pastos Bons,92,BR,1516619552,98,-6.6,-44.09,73.3,3.04
283,Catumbela,0,AO,1516619553,42,-12.43,13.55,87.61,6.06
284,Dongli,40,CN,1516615200,72,24.18,117.61,62.6,13.42
285,Methoni,40,GR,1516618200,41,36.82,21.7,57.2,24.16
286,Orotukan,80,RU,1516619554,87,62.26,151.67,-21.11,2.59
287,Sajoszoged,0,HU,1516619555,89,47.95,21.0,31.45,9.53
288,Minab,0,IR,1516617000,27,27.15,57.07,73.4,11.41
289,Arauca,0,VE,1516619272,83,7.08,-70.76,72.67,4.72
290,Urazovo,88,RU,1516619556,91,50.09,38.04,20.29,9.19
291,Nawa,0,IN,1516619557,35,27.02,75.0,76.63,8.75
292,Brynmawr,75,GB,1516618200,87,51.8,-3.17,48.2,13.87
293,Huancavelica,92,PE,1516619558,98,-12.79,-74.97,38.2,1.92
294,Cabanas,75,ES,1516618800,82,43.42,-8.16,57.2,6.93
295,Rossland,88,CA,1516619559,80,49.08,-117.8,27.9,1.81
296,Sawtell,0,AU,1516617000,69,-30.38,153.1,77.0,9.17
297,Lichtenfels,90,DE,1516618200,86,50.15,11.06,30.2,6.93
298,Tam Ky,75,VN,1516617000,83,15.57,108.48,75.2,5.82
299,Triel-sur-Seine,92,FR,1516618800,93,48.98,2.01,55.4,6.93
300,Brody,92,UA,1516619562,92,50.08,25.14,26.05,8.97
301,Hermiston,1,US,1516618380,93,45.84,-119.29,39.2,8.05
302,Gagino,32,RU,1516619563,85,54.27,39.54,16.83,3.94
303,Amla,0,IN,1516619564,37,21.92,78.13,77.85,2.82
304,Porciuncula,48,BR,1516619564,75,-20.96,-42.04,78.16,3.38
305,Kuala Selangor,75,MY,1516615200,74,3.34,101.25,84.2,8.05
306,Leeton,76,AU,1516619565,42,-34.55,146.4,83.88,7.74
307,Isagarh,0,IN,1516619566,45,24.84,77.89,74.52,3.94
308,Durres,0,AL,1516618200,34,41.32,19.44,48.2,14.99
309,Malangali,88,TZ,1516619567,100,-8.57,34.85,63.27,5.28
310,Klyuchi,8,RU,1516619568,0,52.25,79.17,-30.61,8.08
311,Santa Vitoria do Palmar,0,BR,1516619435,96,-33.52,-53.37,74.56,10.65
312,Pavilosta,90,LV,1516618200,100,56.89,21.19,28.4,6.93
313,Macklin,56,CA,1516619570,80,52.34,-109.94,23.67,11.88
314,Pak Phanang,40,TH,1516615200,83,8.35,100.2,82.4,10.29
315,Ushibuka,0,JP,1516619571,100,32.19,130.02,41.85,5.28
316,Khajuraho,0,IN,1516619571,31,24.85,79.93,73.39,5.06
317,Fereydun Kenar,0,IR,1516615200,72,36.69,52.52,60.8,2.24
318,Amalner,0,IN,1516619572,34,21.04,75.07,84.64,6.29
319,Eureka,90,US,1516617300,100,40.8,-124.16,44.6,3.36
320,Bjornevatn,20,NO,1516618200,84,69.67,29.98,14.0,8.05
321,Zvenigovo,75,RU,1516617000,85,55.97,48.02,19.4,8.95
322,Douglas,90,US,1516618560,100,58.28,-134.39,33.8,2.48
323,Sandpoint,90,US,1516617300,86,48.28,-116.55,35.6,3.71
324,Loudi,76,CN,1516619577,92,27.73,112.0,47.43,3.04
325,Mendeleyevo,75,RU,1516617000,85,56.04,37.23,17.6,13.42
326,Bukoba,0,TZ,1516619578,70,-1.33,31.81,80.59,5.39
327,Beian,20,NO,1516618200,79,63.66,9.57,24.8,23.04
328,Ushuaia,75,AR,1516615200,56,-54.81,-68.31,42.8,11.41
329,Medvezhyegorsk,76,RU,1516619580,77,62.92,34.47,7.06,3.71
330,Itaunja,0,IN,1516617000,38,27.08,80.92,75.2,2.24
331,Foz,12,ES,1516619581,87,43.57,-7.26,58.0,14.79
332,Conguaco,0,GT,1516619581,76,14.05,-90.03,72.58,3.71
333,Jining,36,CN,1516619582,65,35.41,116.58,31.09,8.97
334,Domna,0,RU,1516617000,47,51.9,113.16,-13.01,6.71
335,Kinsale,75,IE,1516617000,87,51.71,-8.52,44.6,6.93
336,Segou,0,SN,1516619583,23,12.41,-12.29,85.18,10.76
337,Motygino,36,RU,1516619584,0,58.18,94.69,-37.18,4.16
338,Badulla,92,LK,1516619584,90,6.99,81.06,69.7,0.36
339,Twin Falls,90,US,1516617600,92,42.57,-114.46,33.8,3.49
340,Nizhniy Tagil,68,RU,1516619737,51,57.92,59.97,-3.16,10.76
341,Rajsamand,88,IN,1516619586,39,25.06,73.89,75.01,2.93
342,Lodwar,0,KE,1516619586,21,3.12,35.6,93.37,14.23
343,Biskamzha,0,RU,1516619587,0,53.45,89.53,-30.11,2.15
344,Makaha,40,US,1516615020,93,21.47,-158.22,75.2,3.36
345,Vila,0,IT,1516618200,39,45.18,8.4,48.2,4.7
346,Barstow,1,US,1516618500,34,31.46,-103.39,35.6,9.17
347,Luena,80,AO,1516619589,83,-11.78,19.91,74.07,3.71
348,Ciudad Valles,36,MX,1516619590,97,21.99,-99.01,58.5,3.6
349,Booue,76,GA,1516619590,94,-0.09,11.94,77.89,0.92
350,Sao Jose da Coroa Grande,92,BR,1516619591,88,-8.9,-35.15,80.73,9.53
351,Sopelana,40,ES,1516618800,71,43.38,-2.98,59.0,9.17
352,Ancud,0,CL,1516619592,82,-41.87,-73.83,53.55,3.27
353,Charyshskoye,32,RU,1516619156,31,51.4,83.56,-22.01,2.26
354,Kuching,75,MY,1516617000,94,1.56,110.34,78.8,8.41
355,Kondoa,0,TZ,1516619593,33,-4.91,35.78,84.78,9.42
356,Dafeng,88,CN,1516619594,77,33.2,120.46,40.54,13.33
357,Deer Lake,90,CA,1516618800,78,49.18,-57.43,15.8,10.29
358,Chodziez,20,PL,1516618800,86,52.99,16.92,28.4,11.41
359,Grimshaw,75,CA,1516618800,85,56.19,-117.61,12.2,3.36
360,Minsk,0,BY,1516617000,92,53.9,27.56,21.2,2.24
361,Ormond Beach,75,US,1516617480,100,29.29,-81.06,55.4,7.29
362,Tolmachevo,75,RU,1516617000,73,55.36,38.22,19.4,11.18
363,Pelym,0,RU,1516619598,67,61.01,62.0,-14.36,8.41
364,Parintins,8,BR,1516619598,93,-2.63,-56.73,76.63,3.27
365,Jiazi,0,CN,1516615200,73,19.61,110.49,73.4,6.71
366,Petrovskoye,75,RU,1516617000,85,56.26,36.47,15.8,13.42
367,Utica,90,US,1516618380,99,43.1,-75.23,35.6,4.7
368,Pauini,100,BR,1516619394,99,-7.71,-67.0,73.21,5.28
369,Merrill,90,US,1516618380,86,42.03,-121.6,33.8,3.36
370,Manadhoo,80,MV,1516619602,100,5.77,73.38,80.32,5.84
371,Kumba,36,CM,1516619603,57,4.64,9.44,85.95,6.96
372,Bisert,76,RU,1516619603,51,56.85,59.05,1.03,15.23
373,Galyugayevskaya,92,RU,1516619604,100,43.7,44.93,34.78,4.38
374,Wiarton,90,CA,1516615200,100,44.74,-81.13,33.8,6.93
375,Milton,90,US,1516618500,79,44.64,-73.11,30.2,12.75
376,Sattahip,20,TH,1516617000,74,12.67,100.9,80.6,6.93
377,Juruti,0,BR,1516619606,85,-2.16,-56.09,77.98,2.93
378,Pechenga,80,RU,1516619607,86,58.89,41.46,13.54,9.42
379,Derzhavinsk,0,KZ,1516619608,63,51.1,66.31,-7.93,18.48
380,Vanavara,56,RU,1516619608,79,60.35,102.28,-18.41,4.38
381,Chor,0,PK,1516619609,66,25.52,69.77,74.11,5.17
382,Constitucion,8,MX,1516619610,72,23.99,-104.67,29.83,2.71
383,Susehri,64,TR,1516619610,88,40.16,38.09,36.04,7.4
384,Wenling,8,CN,1516619611,94,28.38,121.38,48.87,13.67
385,Southbridge,90,US,1516618260,95,42.08,-72.03,37.4,3.04
386,Lima,68,PE,1516619432,80,-12.06,-77.04,60.43,0.69
387,Gopalpur,0,IN,1516619613,82,25.6,86.94,63.76,3.38
388,Rome,0,IT,1516618500,66,41.89,12.48,57.2,4.7
389,Goulburn,76,AU,1516619614,68,-34.75,149.72,75.82,2.37
390,Nieves,64,MX,1516619614,49,24.0,-103.02,34.83,2.93
391,Chiriqui Grande,48,PA,1516619615,92,8.95,-82.12,68.4,2.37
392,Pokrovsk,92,UA,1516619616,92,48.28,37.18,27.45,16.35
393,Carballo,75,ES,1516618800,82,43.21,-8.69,57.2,6.93
394,Kidal,12,ML,1516619617,38,18.44,1.41,72.49,16.8
395,Piedecuesta,0,CO,1516619617,88,6.99,-73.05,59.62,4.16
396,Nogliki,0,RU,1516619618,100,51.8,143.14,-8.24,3.83
397,Santa Ines,90,EC,1516615200,93,-0.82,-78.63,50.0,9.17
398,Yenagoa,24,NG,1516619619,80,4.92,6.26,86.89,5.61
399,Puerto Maldonado,56,PE,1516619620,93,-12.59,-69.19,74.25,2.93
400,Rovnoye,92,RU,1516619751,95,50.78,46.06,26.23,4.61
401,Yerbogachen,56,RU,1516619621,83,61.28,108.01,-19.49,3.04
402,Balyaga,44,RU,1516619622,72,51.15,108.93,-18.23,7.96
403,Starachowice,80,PL,1516619752,94,51.05,21.08,26.73,6.17
404,Kapuskasing,90,CA,1516615200,84,49.42,-82.43,-2.21,6.93
405,Srem,76,BG,1516619623,98,42.05,26.48,37.35,17.02
406,Concepcion del Uruguay,24,AR,1516619624,75,-32.48,-58.24,79.96,5.28
407,Uvat,0,RU,1516619625,33,59.14,68.9,-21.38,5.5
408,Swan River,76,CA,1516619625,81,52.11,-101.27,7.24,4.5
409,Yumen,0,CN,1516619626,79,40.29,97.04,14.53,7.63
410,Gresham,1,US,1516618380,100,45.51,-122.44,44.6,6.62
411,Esso,64,RU,1516619627,58,55.93,158.7,-0.73,4.72
412,Saiha,0,IN,1516619628,67,22.49,92.98,62.23,1.59
413,Dromolaxia,40,CY,1516618800,88,34.88,33.59,64.4,23.04
414,Abomey,0,BJ,1516619629,47,7.18,1.99,90.04,4.61
415,Mincivan,36,AZ,1516619629,69,39.03,46.72,49.72,2.48
416,Galdar,0,ES,1516618800,68,28.15,-15.65,68.0,12.75
417,Kingston,90,CA,1516618560,86,44.23,-76.48,33.8,8.05
418,Masumbwe,44,TZ,1516619631,64,-3.65,32.16,78.3,0.69
419,Hukuntsi,44,BW,1516619631,27,-23.98,21.76,89.05,16.8
420,Uri,20,IT,1516618200,63,40.64,8.49,62.6,12.75
421,Huallanca,88,PE,1516619632,97,-9.9,-76.94,38.56,0.92
422,Monroe,90,US,1516618380,93,41.91,-83.4,44.6,4.7
423,Tandil,0,AR,1516619633,74,-37.33,-59.14,76.45,4.83
424,Winchester,40,GB,1516618200,76,51.06,-1.31,50.0,9.17
425,Laredo,1,US,1516618560,87,27.51,-99.51,59.0,10.29
426,Sungai Udang,75,MY,1516617000,79,5.16,100.43,84.2,4.7
427,Partizanskoye,68,UA,1516619636,98,44.83,34.08,39.15,10.76
428,Santo Antonio do Ica,36,BR,1516619636,100,-3.1,-67.94,72.4,3.6
429,Outlook,8,CA,1516619637,77,51.48,-107.04,16.38,8.63
430,Puerto Castilla,0,ES,1516619637,89,40.29,-5.63,49.36,0.92
431,Saint-Jean-de-Braye,90,FR,1516618800,87,47.92,1.97,55.4,24.16
432,Puerto Quijarro,0,BO,1516615200,83,-19.0,-57.72,78.8,1.12
433,Huambo,32,AO,1516619639,77,-12.78,15.73,73.48,4.27
434,Burns Lake,24,CA,1516619640,63,54.23,-125.76,11.38,3.15
435,Khislavichi,68,RU,1516619640,81,54.19,32.16,21.73,7.63
436,Abaza,12,RU,1516619641,48,52.65,90.1,-30.43,2.37
437,Mora,8,PT,1516619642,97,38.94,-8.17,58.23,8.19
438,Mapiripan,8,CO,1516619642,63,2.89,-72.13,77.13,5.95
439,Mookane,0,BW,1516619643,27,-23.68,26.66,94.05,14.12
440,Thyolo,32,MW,1516619643,45,-16.07,35.15,86.85,7.18
441,Sukabumi,92,ID,1516619644,96,-6.92,106.93,73.08,6.62
442,Mlalo,0,TZ,1516619645,35,-4.58,38.35,88.02,4.94
443,Ialibu,92,PG,1516619645,99,-6.28,143.99,56.29,0.69
444,Mersing,36,MY,1516619646,86,2.43,103.84,80.37,9.19
445,Tyup,12,KG,1516619646,87,42.73,78.36,13.81,2.59
446,Mittweida,75,DE,1516618200,86,50.99,12.98,33.8,6.93
447,Nagapattinam,48,IN,1516619647,65,10.76,79.84,78.07,9.75
448,Paamiut,0,GL,1516619648,86,61.99,-49.67,29.02,9.86
449,Atasu,0,KZ,1516619649,63,48.68,71.64,3.28,13.0
450,Crixas,12,BR,1516619649,78,-14.55,-49.97,81.22,4.16
451,Quelimane,75,MZ,1516615200,70,-17.88,36.89,84.2,8.97
452,Wisconsin Rapids,90,US,1516618980,86,44.39,-89.82,35.6,12.75
453,Zemio,0,CF,1516619651,36,5.02,25.13,91.75,6.73
454,Kavali,0,IN,1516619651,48,14.91,79.99,79.15,10.09
455,Paris,92,FR,1516618800,93,48.86,2.35,55.4,6.93
456,Tacna,0,PE,1516615200,82,-18.01,-70.25,66.2,3.36
457,Gumdag,12,TM,1516619653,77,39.2,54.59,55.08,8.41
458,Cachoeira do Sul,92,BR,1516619424,100,-30.05,-52.89,71.59,5.39
459,Carpentras,0,FR,1516618800,48,44.06,5.05,64.4,9.17
460,Fonte Boa,64,BR,1516619655,91,-2.51,-66.09,76.05,4.16
461,Nevel,68,RU,1516619655,83,56.02,29.92,22.27,11.43
462,Tsimlyansk,92,RU,1516619656,99,47.65,42.1,32.58,11.99
